<?xml version="1.0" encoding="utf-8"?>
<ArrayOfVolunteer xmlns:xsi="http://www.w3.org/2001/XMLSchema-instance" xmlns:xsd="http://www.w3.org/2001/XMLSchema">
  <Volunteer>
    <Id>370443913</Id>
    <FullName>Dani Levy</FullName>
    <Phone>05658897239</Phone>
    <Email>danilevy@gmail.com</Email>
    <Role>Volunteer</Role>
    <TypeDistance>Aerial</TypeDistance>
    <Password>qh9QHRYwuqu51IFCirKECw==</Password>
    <Address>Rothschild 10, Tel Aviv, Israel</Address>
    <Latitude>32.06366</Latitude>
    <Longitude>34.77697</Longitude>
    <MaxDistance xsi:nil="true" />
    <IsActive>true</IsActive>
  </Volunteer>
  <Volunteer>
    <Id>233494843</Id>
    <FullName>Eli Amar</FullName>
    <Phone>05839093594</Phone>
    <Email>eliamar@gmail.com</Email>
    <Role>Volunteer</Role>
    <TypeDistance>Aerial</TypeDistance>
    <Password>fNYz+xAqmDMwfx7VDYBiYA==</Password>
    <Address>Yigal Alon 120, Tel Aviv, Israel</Address>
    <Latitude>32.0618</Latitude>
    <Longitude>34.79152</Longitude>
    <MaxDistance xsi:nil="true" />
    <IsActive>true</IsActive>
  </Volunteer>
  <Volunteer>
    <Id>299934741</Id>
    <FullName>Yair Cohen</FullName>
    <Phone>05236546952</Phone>
    <Email>yaircohen@gmail.com</Email>
    <Role>Volunteer</Role>
    <TypeDistance>Aerial</TypeDistance>
    <Password>taXoGVPKgtzyf2a62PomxQ==</Password>
    <Address>Ibn Gvirol 30, Tel Aviv, Israel</Address>
    <Latitude>32.08404</Latitude>
    <Longitude>34.78139</Longitude>
    <MaxDistance>34.63418781780847</MaxDistance>
    <IsActive>true</IsActive>
  </Volunteer>
  <Volunteer>
    <Id>368881372</Id>
    <FullName>Ariela Levin</FullName>
    <Phone>05525607495</Phone>
    <Email>arielalevin@gmail.com</Email>
    <Role>Volunteer</Role>
    <TypeDistance>Aerial</TypeDistance>
    <Password>82tqqUg7YNtxDHuqJ7R8lQ==</Password>
    <Address>Derech Hevron 78, Jerusalem, Israel</Address>
    <Latitude>31.74851</Latitude>
    <Longitude>35.21289</Longitude>
    <MaxDistance xsi:nil="true" />
    <IsActive>true</IsActive>
  </Volunteer>
  <Volunteer>
    <Id>384904015</Id>
    <FullName>Dina Klein</FullName>
    <Phone>05063999888</Phone>
    <Email>dinaklein@gmail.com</Email>
    <Role>Volunteer</Role>
    <TypeDistance>Aerial</TypeDistance>
    <Password>xNDdyrIhTF1po67I9Dk3CQ==</Password>
    <Address>Herzl Blvd 103, Jerusalem, Israel</Address>
    <Latitude>31.76832</Latitude>
    <Longitude>35.18331</Longitude>
    <MaxDistance>86.73856530734635</MaxDistance>
    <IsActive>true</IsActive>
  </Volunteer>
  <Volunteer>
    <Id>365199079</Id>
    <FullName>Shira Israelof</FullName>
    <Phone>05538820863</Phone>
    <Email>shiraisraelof@gmail.com</Email>
    <Role>Volunteer</Role>
    <TypeDistance>Aerial</TypeDistance>
    <Password>S1gyNYt9YVquwrkiqr9hIQ==</Password>
    <Address>Jaffa St 45, Jerusalem, Israel</Address>
    <Latitude>31.78571</Latitude>
    <Longitude>35.22323</Longitude>
    <MaxDistance xsi:nil="true" />
    <IsActive>true</IsActive>
  </Volunteer>
  <Volunteer>
    <Id>359288470</Id>
    <FullName>David Ben-Gurion</FullName>
    <Phone>05084650450</Phone>
    <Email>davidben-gurion@gmail.com</Email>
    <Role>Volunteer</Role>
    <TypeDistance>Aerial</TypeDistance>
    <Password>oRA63HIHrJw5LhaxlNbaBQ==</Password>
    <Address>Herzl 9, Haifa, Israel</Address>
    <Latitude>32.79916</Latitude>
    <Longitude>34.99115</Longitude>
    <MaxDistance>75.06925952612717</MaxDistance>
    <IsActive>true</IsActive>
  </Volunteer>
  <Volunteer>
    <Id>256444389</Id>
    <FullName>Golda Meir</FullName>
    <Phone>05422523413</Phone>
    <Email>goldameir@gmail.com</Email>
    <Role>Volunteer</Role>
    <TypeDistance>Aerial</TypeDistance>
    <Password>sj3d6Yz0BqZkRpo9D/XOhw==</Password>
    <Address>Moriah Blvd 70, Haifa, Israel</Address>
    <Latitude>32.79406</Latitude>
    <Longitude>34.98264</Longitude>
    <MaxDistance xsi:nil="true" />
    <IsActive>true</IsActive>
  </Volunteer>
  <Volunteer>
    <Id>290665164</Id>
    <FullName>Yitzhak Rabin</FullName>
    <Phone>05336792185</Phone>
    <Email>yitzhakrabin@gmail.com</Email>
    <Role>Volunteer</Role>
    <TypeDistance>Aerial</TypeDistance>
    <Password>A5dou97JRkMNEa5vCwK0Nw==</Password>
    <Address>The Prophets 11, Haifa, Israel</Address>
    <Latitude>32.81912</Latitude>
    <Longitude>34.98865</Longitude>
    <MaxDistance>65.32289075026368</MaxDistance>
    <IsActive>true</IsActive>
  </Volunteer>
  <Volunteer>
    <Id>254039412</Id>
    <FullName>Chaim Weizmann</FullName>
    <Phone>05418421076</Phone>
    <Email>chaimweizmann@gmail.com</Email>
    <Role>Volunteer</Role>
    <TypeDistance>Aerial</TypeDistance>
    <Password>VbkgUOFYzVyiou2T1+6CjQ==</Password>
    <Address>Rav Shauli 5, Be'er Sheva, Israel</Address>
    <Latitude>31.25297</Latitude>
    <Longitude>34.79223</Longitude>
    <MaxDistance>36.50484670366929</MaxDistance>
    <IsActive>true</IsActive>
  </Volunteer>
  <Volunteer>
    <Id>296413472</Id>
    <FullName>Menachem Begin</FullName>
    <Phone>05741415709</Phone>
    <Email>menachembegin@gmail.com</Email>
    <Role>Volunteer</Role>
    <TypeDistance>Aerial</TypeDistance>
    <Password>Rz4WQImtHV4+hqjF1n9R+g==</Password>
    <Address>Reger Blvd 55, Be'er Sheva, Israel</Address>
    <Latitude>31.24642</Latitude>
    <Longitude>34.77952</Longitude>
    <MaxDistance xsi:nil="true" />
    <IsActive>true</IsActive>
  </Volunteer>
  <Volunteer>
    <Id>399826110</Id>
    <FullName>Ariel Sharon</FullName>
    <Phone>05610117246</Phone>
    <Email>arielsharon@gmail.com</Email>
    <Role>Volunteer</Role>
    <TypeDistance>Aerial</TypeDistance>
    <Password>E9nna7JaoAMBFSts4dkVHw==</Password>
    <Address>Johanna Jabotinsky 15, Be'er Sheva, Israel</Address>
    <Latitude>31.2536</Latitude>
    <Longitude>34.78251</Longitude>
    <MaxDistance xsi:nil="true" />
    <IsActive>true</IsActive>
  </Volunteer>
  <Volunteer>
    <Id>367958909</Id>
    <FullName>Moshe Dayan</FullName>
    <Phone>05445278286</Phone>
    <Email>moshedayan@gmail.com</Email>
    <Role>Volunteer</Role>
    <TypeDistance>Aerial</TypeDistance>
    <Password>ueCQJuzpEzoGxHl9sxSVIw==</Password>
    <Address>Begin Way 234, Petah Tikva, Israel</Address>
    <Latitude>32.09077</Latitude>
    <Longitude>34.88718</Longitude>
    <MaxDistance>76.90764424717327</MaxDistance>
    <IsActive>true</IsActive>
  </Volunteer>
  <Volunteer>
    <Id>382909293</Id>
    <FullName>Shimon Peres</FullName>
    <Phone>05323081176</Phone>
    <Email>shimonperes@gmail.com</Email>
    <Role>Volunteer</Role>
    <TypeDistance>Aerial</TypeDistance>
    <Password>5vuYlRUau8CtL+/OTt5xRg==</Password>
    <Address>Weizmann 22, Petah Tikva, Israel</Address>
    <Latitude>32.08862</Latitude>
    <Longitude>34.88532</Longitude>
    <MaxDistance xsi:nil="true" />
    <IsActive>true</IsActive>
  </Volunteer>
  <Volunteer>
    <Id>262316336</Id>
    <FullName>Yigal Alon</FullName>
    <Phone>05859685141</Phone>
    <Email>yigalalon@gmail.com</Email>
    <Role>Volunteer</Role>
    <TypeDistance>Aerial</TypeDistance>
    <Password>aCaWOx1kemoDUg8S8H7qbw==</Password>
    <Address>Eli Cohen 1, Ramat Gan, Israel</Address>
    <Latitude>32.08333</Latitude>
    <Longitude>34.82732</Longitude>
    <MaxDistance>66.3833163440302</MaxDistance>
    <IsActive>true</IsActive>
  </Volunteer>
  <Volunteer>
    <Id>327770087</Id>
    <FullName>Ayala Ozeri</FullName>
    <Phone>0533328200</Phone>
    <Email>ayala.ozeri@gmail.com</Email>
    <Role>Manager</Role>
    <TypeDistance>Aerial</TypeDistance>
    <Password>cG7u4PJH+b6BY1IXLhJYJQ==</Password>
    <Address>Rothschild 10, Tel Aviv, Israel</Address>
    <Latitude>32.0625</Latitude>
    <Longitude>34.7721</Longitude>
    <MaxDistance>10</MaxDistance>
    <IsActive>true</IsActive>
  </Volunteer>
  <Volunteer>
    <Id>326615127</Id>
    <FullName>Yael Shneor</FullName>
    <Phone>0533859299</Phone>
    <Email>y7697086@gmail.com</Email>
    <Role>Manager</Role>
    <TypeDistance>Aerial</TypeDistance>
    <Password>4Aa0guBmhrmrgF+t+EJTUw==</Password>
    <Address>Derech Hevron 78, Jerusalem, Israel</Address>
    <Latitude>31.7525</Latitude>
    <Longitude>35.2121</Longitude>
    <MaxDistance>20</MaxDistance>
    <IsActive>true</IsActive>
  </Volunteer>
</ArrayOfVolunteer>