<?xml version="1.0" encoding="utf-8"?>
<ArrayOfVolunteer xmlns:xsi="http://www.w3.org/2001/XMLSchema-instance" xmlns:xsd="http://www.w3.org/2001/XMLSchema">
  <Volunteer>
    <Id>128044765</Id>
    <FullName>Dani Levy</FullName>
    <Phone>05192005085</Phone>
    <Email>danilevy@gmail.com</Email>
    <Role>Volunteer</Role>
    <TypeDistance>Walking</TypeDistance>
    <Password>Z7IGJHEK8mz0BPCFDu0n5g==</Password>
    <Address>Rothschild 10, Tel Aviv, Israel</Address>
    <Latitude>32.06366</Latitude>
    <Longitude>34.77697</Longitude>
    <MaxDistance>74.04872420014773</MaxDistance>
    <IsActive>true</IsActive>
  </Volunteer>
  <Volunteer>
    <Id>484501226</Id>
    <FullName>Eli Amar</FullName>
    <Phone>05388320082</Phone>
    <Email>eliamar@gmail.com</Email>
    <Role>Volunteer</Role>
    <TypeDistance>Aerial</TypeDistance>
    <Password>l83ZkwpSfuOp4wVoa0a+mg==</Password>
    <Address>Yigal Alon 120, Tel Aviv, Israel</Address>
    <Latitude>32.0618</Latitude>
    <Longitude>34.79152</Longitude>
    <MaxDistance>46.89535071657861</MaxDistance>
    <IsActive>true</IsActive>
  </Volunteer>
  <Volunteer>
    <Id>967530684</Id>
    <FullName>Yair Cohen</FullName>
    <Phone>05045086399</Phone>
    <Email>yaircohen@gmail.com</Email>
    <Role>Volunteer</Role>
    <TypeDistance>Walking</TypeDistance>
    <Password>XZ0M6YIyxCWxdx+rL12XJQ==</Password>
    <Address>Ibn Gvirol 30, Tel Aviv, Israel</Address>
    <Latitude>32.08404</Latitude>
    <Longitude>34.78139</Longitude>
    <MaxDistance>49.631491221498464</MaxDistance>
    <IsActive>true</IsActive>
  </Volunteer>
  <Volunteer>
    <Id>190313205</Id>
    <FullName>Ariela Levin</FullName>
    <Phone>05944462902</Phone>
    <Email>arielalevin@gmail.com</Email>
    <Role>Volunteer</Role>
    <TypeDistance>Aerial</TypeDistance>
    <Password>qAdsz1pfUYEcve98KUEGtw==</Password>
    <Address>Derech Hevron 78, Jerusalem, Israel</Address>
    <Latitude>31.74851</Latitude>
    <Longitude>35.21289</Longitude>
    <MaxDistance>46.882921106676065</MaxDistance>
    <IsActive>true</IsActive>
  </Volunteer>
  <Volunteer>
    <Id>975363193</Id>
    <FullName>Dina Klein</FullName>
    <Phone>05878261503</Phone>
    <Email>dinaklein@gmail.com</Email>
    <Role>Volunteer</Role>
    <TypeDistance>Walking</TypeDistance>
    <Password>mrHwZfxhm3Fvj98Dd8g34Q==</Password>
    <Address>Herzl Blvd 103, Jerusalem, Israel</Address>
    <Latitude>31.76832</Latitude>
    <Longitude>35.18331</Longitude>
    <MaxDistance>81.42093715195942</MaxDistance>
    <IsActive>true</IsActive>
  </Volunteer>
  <Volunteer>
    <Id>421137647</Id>
    <FullName>Shira Israelof</FullName>
    <Phone>05863484009</Phone>
    <Email>shiraisraelof@gmail.com</Email>
    <Role>Volunteer</Role>
    <TypeDistance>Traveling</TypeDistance>
    <Password>tqYOIpKAm39buE8I4t05jA==</Password>
    <Address>Jaffa St 45, Jerusalem, Israel</Address>
    <Latitude>31.78571</Latitude>
    <Longitude>35.22323</Longitude>
    <MaxDistance>93.74641683248308</MaxDistance>
    <IsActive>true</IsActive>
  </Volunteer>
  <Volunteer>
    <Id>627262876</Id>
    <FullName>David BenGurion</FullName>
    <Phone>05317130334</Phone>
    <Email>davidbengurion@gmail.com</Email>
    <Role>Volunteer</Role>
    <TypeDistance>Walking</TypeDistance>
    <Password>fGNrLCodyyUX/+81+EsuFA==</Password>
    <Address>Herzl 9, Haifa, Israel</Address>
    <Latitude>32.79916</Latitude>
    <Longitude>34.99115</Longitude>
    <MaxDistance>49.70581587902855</MaxDistance>
    <IsActive>true</IsActive>
  </Volunteer>
  <Volunteer>
    <Id>698811734</Id>
    <FullName>Golda Meir</FullName>
    <Phone>05616727747</Phone>
    <Email>goldameir@gmail.com</Email>
    <Role>Volunteer</Role>
    <TypeDistance>Walking</TypeDistance>
    <Password>EI1Yi6LsyprtZd/rf79KpA==</Password>
    <Address>Moriah Blvd 70, Haifa, Israel</Address>
    <Latitude>32.79406</Latitude>
    <Longitude>34.98264</Longitude>
    <MaxDistance>36.97466666797564</MaxDistance>
    <IsActive>true</IsActive>
  </Volunteer>
  <Volunteer>
    <Id>301150447</Id>
    <FullName>Yitzhak Rabin</FullName>
    <Phone>05031066423</Phone>
    <Email>yitzhakrabin@gmail.com</Email>
    <Role>Volunteer</Role>
    <TypeDistance>Walking</TypeDistance>
    <Password>P8r17wA/GqGcnWb1/wuVGg==</Password>
    <Address>The Prophets 11, Haifa, Israel</Address>
    <Latitude>32.81912</Latitude>
    <Longitude>34.98865</Longitude>
    <MaxDistance>78.04435138465723</MaxDistance>
    <IsActive>true</IsActive>
  </Volunteer>
  <Volunteer>
    <Id>781021860</Id>
    <FullName>Chaim Weizmann</FullName>
    <Phone>05483427036</Phone>
    <Email>chaimweizmann@gmail.com</Email>
    <Role>Volunteer</Role>
    <TypeDistance>Traveling</TypeDistance>
    <Password>t/5rSePDY7ww/eXh0hYBFA==</Password>
    <Address>Rav Shauli 5, Be'er Sheva, Israel</Address>
    <Latitude>31.25297</Latitude>
    <Longitude>34.79223</Longitude>
    <MaxDistance>22.357478820125177</MaxDistance>
    <IsActive>true</IsActive>
  </Volunteer>
  <Volunteer>
    <Id>603051947</Id>
    <FullName>Menachem Begin</FullName>
    <Phone>05226950912</Phone>
    <Email>menachembegin@gmail.com</Email>
    <Role>Volunteer</Role>
    <TypeDistance>Aerial</TypeDistance>
    <Password>hJQ2D5SzaLr8UYKXmud14Q==</Password>
    <Address>Reger Blvd 55, Be'er Sheva, Israel</Address>
    <Latitude>31.24642</Latitude>
    <Longitude>34.77952</Longitude>
    <MaxDistance>72.32572101183771</MaxDistance>
    <IsActive>true</IsActive>
  </Volunteer>
  <Volunteer>
    <Id>824564579</Id>
    <FullName>Ariel Sharon</FullName>
    <Phone>05113320831</Phone>
    <Email>arielsharon@gmail.com</Email>
    <Role>Volunteer</Role>
    <TypeDistance>Traveling</TypeDistance>
    <Password>0fOP3hVS4mimfeFKxqLM8w==</Password>
    <Address>Johanna Jabotinsky 15, Be'er Sheva, Israel</Address>
    <Latitude>31.2536</Latitude>
    <Longitude>34.78251</Longitude>
    <MaxDistance>67.99081127722914</MaxDistance>
    <IsActive>true</IsActive>
  </Volunteer>
  <Volunteer>
    <Id>680710332</Id>
    <FullName>Moshe Dayan</FullName>
    <Phone>05355145437</Phone>
    <Email>moshedayan@gmail.com</Email>
    <Role>Volunteer</Role>
    <TypeDistance>Traveling</TypeDistance>
    <Password>dh9FZFjotxex6QcDZ+WmWw==</Password>
    <Address>Begin Way 234, Petah Tikva, Israel</Address>
    <Latitude>32.09077</Latitude>
    <Longitude>34.88718</Longitude>
    <MaxDistance>62.41500547366096</MaxDistance>
    <IsActive>true</IsActive>
  </Volunteer>
  <Volunteer>
    <Id>747695906</Id>
    <FullName>Shimon Peres</FullName>
    <Phone>05166287610</Phone>
    <Email>shimonperes@gmail.com</Email>
    <Role>Volunteer</Role>
    <TypeDistance>Aerial</TypeDistance>
    <Password>FC1nQGEQ9GIyOIlmCQP1rA==</Password>
    <Address>Weizmann 22, Petah Tikva, Israel</Address>
    <Latitude>32.08862</Latitude>
    <Longitude>34.88532</Longitude>
    <MaxDistance>83.5126180507108</MaxDistance>
    <IsActive>true</IsActive>
  </Volunteer>
  <Volunteer>
    <Id>975856709</Id>
    <FullName>Yigal Alon</FullName>
    <Phone>05011473636</Phone>
    <Email>yigalalon@gmail.com</Email>
    <Role>Volunteer</Role>
    <TypeDistance>Walking</TypeDistance>
    <Password>GKh077VNdvvZKfv9PXd5/A==</Password>
    <Address>Eli Cohen 1, Ramat Gan, Israel</Address>
    <Latitude>32.08333</Latitude>
    <Longitude>34.82732</Longitude>
    <MaxDistance>17.752548044295242</MaxDistance>
    <IsActive>true</IsActive>
  </Volunteer>
  <Volunteer>
    <Id>327770087</Id>
    <FullName>Ayala Ozeri</FullName>
    <Phone>0533328200</Phone>
    <Email>ayala.ozeri@gmail.com</Email>
    <Role>Manager</Role>
    <TypeDistance>Aerial</TypeDistance>
    <Password>cG7u4PJH+b6BY1IXLhJYJQ==</Password>
    <Address>Rothschild 10, Tel Aviv, Israel</Address>
    <Latitude>32.0625</Latitude>
    <Longitude>34.7721</Longitude>
    <MaxDistance>10</MaxDistance>
    <IsActive>true</IsActive>
  </Volunteer>
  <Volunteer>
    <Id>326615127</Id>
    <FullName>Yael Shneor</FullName>
    <Phone>0533859299</Phone>
    <Email>y7697086@gmail.com</Email>
    <Role>Manager</Role>
    <TypeDistance>Traveling</TypeDistance>
    <Password>4Aa0guBmhrmrgF+t+EJTUw==</Password>
    <Address>Derech Hevron 78, Jerusalem, Israel</Address>
    <Latitude>31.7525</Latitude>
    <Longitude>35.2121</Longitude>
    <MaxDistance>20</MaxDistance>
    <IsActive>true</IsActive>
  </Volunteer>
</ArrayOfVolunteer>