<?xml version="1.0" encoding="utf-8"?>
<ArrayOfVolunteer xmlns:xsi="http://www.w3.org/2001/XMLSchema-instance" xmlns:xsd="http://www.w3.org/2001/XMLSchema">
  <Volunteer>
    <Id>975363193</Id>
    <FullName>Dani Levy</FullName>
    <Phone>05383764398</Phone>
    <Email>danilevy@gmail.com</Email>
    <Role>Volunteer</Role>
    <TypeDistance>Traveling</TypeDistance>
    <Password>X1pprQjn+Zex6S4PFapvdA==</Password>
    <Address>Rothschild 10, Tel Aviv, Israel</Address>
    <Latitude>32.06366</Latitude>
    <Longitude>34.77697</Longitude>
    <MaxDistance>92.86240761643687</MaxDistance>
    <IsActive>true</IsActive>
  </Volunteer>
  <Volunteer>
    <Id>824564579</Id>
    <FullName>Eli Amar</FullName>
    <Phone>05899036083</Phone>
    <Email>eliamar@gmail.com</Email>
    <Role>Volunteer</Role>
    <TypeDistance>Walking</TypeDistance>
    <Password>6wTxdwv/NpoDszjlKo1HCQ==</Password>
    <Address>Yigal Alon 120, Tel Aviv, Israel</Address>
    <Latitude>32.0618</Latitude>
    <Longitude>34.79152</Longitude>
    <MaxDistance>32.01325015311204</MaxDistance>
    <IsActive>true</IsActive>
  </Volunteer>
  <Volunteer>
    <Id>603051947</Id>
    <FullName>Yair Cohen</FullName>
    <Phone>05369050417</Phone>
    <Email>yaircohen@gmail.com</Email>
    <Role>Volunteer</Role>
    <TypeDistance>Traveling</TypeDistance>
    <Password>RyeOUGrsqew3eQh7ePEO8Q==</Password>
    <Address>Ibn Gvirol 30, Tel Aviv, Israel</Address>
    <Latitude>32.08404</Latitude>
    <Longitude>34.78139</Longitude>
    <MaxDistance>88.48155210110241</MaxDistance>
    <IsActive>true</IsActive>
  </Volunteer>
  <Volunteer>
    <Id>680710332</Id>
    <FullName>Ariela Levin</FullName>
    <Phone>05588297829</Phone>
    <Email>arielalevin@gmail.com</Email>
    <Role>Volunteer</Role>
    <TypeDistance>Traveling</TypeDistance>
    <Password>2Qsh3/cJx6/eHSsnoqI9GA==</Password>
    <Address>Derech Hevron 78, Jerusalem, Israel</Address>
    <Latitude>31.74851</Latitude>
    <Longitude>35.21289</Longitude>
    <MaxDistance>95.54397312847041</MaxDistance>
    <IsActive>true</IsActive>
  </Volunteer>
  <Volunteer>
    <Id>301150447</Id>
    <FullName>Dina Klein</FullName>
    <Phone>05782857421</Phone>
    <Email>dinaklein@gmail.com</Email>
    <Role>Volunteer</Role>
    <TypeDistance>Traveling</TypeDistance>
    <Password>YYozBCXbsRY75qI2s3+MRA==</Password>
    <Address>Herzl Blvd 103, Jerusalem, Israel</Address>
    <Latitude>31.76832</Latitude>
    <Longitude>35.18331</Longitude>
    <MaxDistance>67.77767519104431</MaxDistance>
    <IsActive>true</IsActive>
  </Volunteer>
  <Volunteer>
    <Id>484501226</Id>
    <FullName>Shira Israelof</FullName>
    <Phone>05049725947</Phone>
    <Email>shiraisraelof@gmail.com</Email>
    <Role>Volunteer</Role>
    <TypeDistance>Aerial</TypeDistance>
    <Password>ZRDpEM7W3vxENbX7tYKvog==</Password>
    <Address>Jaffa St 45, Jerusalem, Israel</Address>
    <Latitude>31.78571</Latitude>
    <Longitude>35.22323</Longitude>
    <MaxDistance>24.07922296078734</MaxDistance>
    <IsActive>true</IsActive>
  </Volunteer>
  <Volunteer>
    <Id>674550785</Id>
    <FullName>David BenGurion</FullName>
    <Phone>05518179960</Phone>
    <Email>davidbengurion@gmail.com</Email>
    <Role>Volunteer</Role>
    <TypeDistance>Walking</TypeDistance>
    <Password>AEwiYXuhP17qD41a2PwDbw==</Password>
    <Address>Herzl 9, Haifa, Israel</Address>
    <Latitude>32.79916</Latitude>
    <Longitude>34.99115</Longitude>
    <MaxDistance>31.85169151052139</MaxDistance>
    <IsActive>true</IsActive>
  </Volunteer>
  <Volunteer>
    <Id>721016087</Id>
    <FullName>Golda Meir</FullName>
    <Phone>05712996996</Phone>
    <Email>goldameir@gmail.com</Email>
    <Role>Volunteer</Role>
    <TypeDistance>Walking</TypeDistance>
    <Password>UgicZUngY87dbLafXC7XBA==</Password>
    <Address>Moriah Blvd 70, Haifa, Israel</Address>
    <Latitude>32.79406</Latitude>
    <Longitude>34.98264</Longitude>
    <MaxDistance>90.21448270356312</MaxDistance>
    <IsActive>true</IsActive>
  </Volunteer>
  <Volunteer>
    <Id>627262876</Id>
    <FullName>Yitzhak Rabin</FullName>
    <Phone>05435892822</Phone>
    <Email>yitzhakrabin@gmail.com</Email>
    <Role>Volunteer</Role>
    <TypeDistance>Walking</TypeDistance>
    <Password>5rz2+AYV+Su/Jr+oROhVqA==</Password>
    <Address>The Prophets 11, Haifa, Israel</Address>
    <Latitude>32.81912</Latitude>
    <Longitude>34.98865</Longitude>
    <MaxDistance>34.489945470937656</MaxDistance>
    <IsActive>true</IsActive>
  </Volunteer>
  <Volunteer>
    <Id>698811734</Id>
    <FullName>Chaim Weizmann</FullName>
    <Phone>05053118511</Phone>
    <Email>chaimweizmann@gmail.com</Email>
    <Role>Volunteer</Role>
    <TypeDistance>Walking</TypeDistance>
    <Password>CHLQ6I9VhfvdjNuDOxXUYA==</Password>
    <Address>Rav Shauli 5, Be'er Sheva, Israel</Address>
    <Latitude>31.25297</Latitude>
    <Longitude>34.79223</Longitude>
    <MaxDistance>59.89161542050493</MaxDistance>
    <IsActive>true</IsActive>
  </Volunteer>
  <Volunteer>
    <Id>128044765</Id>
    <FullName>Menachem Begin</FullName>
    <Phone>05145284246</Phone>
    <Email>menachembegin@gmail.com</Email>
    <Role>Volunteer</Role>
    <TypeDistance>Walking</TypeDistance>
    <Password>QW9vO6RZThWWBOiI7t2j8g==</Password>
    <Address>Reger Blvd 55, Be'er Sheva, Israel</Address>
    <Latitude>31.24642</Latitude>
    <Longitude>34.77952</Longitude>
    <MaxDistance>98.23235721546611</MaxDistance>
    <IsActive>true</IsActive>
  </Volunteer>
  <Volunteer>
    <Id>190313205</Id>
    <FullName>Ariel Sharon</FullName>
    <Phone>05217244748</Phone>
    <Email>arielsharon@gmail.com</Email>
    <Role>Volunteer</Role>
    <TypeDistance>Walking</TypeDistance>
    <Password>b/w280N2KOM66BMhKjKReg==</Password>
    <Address>Johanna Jabotinsky 15, Be'er Sheva, Israel</Address>
    <Latitude>31.2536</Latitude>
    <Longitude>34.78251</Longitude>
    <MaxDistance>90.09604363985136</MaxDistance>
    <IsActive>true</IsActive>
  </Volunteer>
  <Volunteer>
    <Id>421137647</Id>
    <FullName>Moshe Dayan</FullName>
    <Phone>05248914015</Phone>
    <Email>moshedayan@gmail.com</Email>
    <Role>Volunteer</Role>
    <TypeDistance>Aerial</TypeDistance>
    <Password>qKPCvybpEjMZvQsSfBaKkA==</Password>
    <Address>Begin Way 234, Petah Tikva, Israel</Address>
    <Latitude>32.09077</Latitude>
    <Longitude>34.88718</Longitude>
    <MaxDistance>80.97283191365312</MaxDistance>
    <IsActive>true</IsActive>
  </Volunteer>
  <Volunteer>
    <Id>967530684</Id>
    <FullName>Shimon Peres</FullName>
    <Phone>05813859783</Phone>
    <Email>shimonperes@gmail.com</Email>
    <Role>Volunteer</Role>
    <TypeDistance>Aerial</TypeDistance>
    <Password>KCUtW04xiKD6QsxQQEo4LQ==</Password>
    <Address>Weizmann 22, Petah Tikva, Israel</Address>
    <Latitude>32.08862</Latitude>
    <Longitude>34.88532</Longitude>
    <MaxDistance>87.97821330551889</MaxDistance>
    <IsActive>true</IsActive>
  </Volunteer>
  <Volunteer>
    <Id>142161512</Id>
    <FullName>Yigal Alon</FullName>
    <Phone>05552244267</Phone>
    <Email>yigalalon@gmail.com</Email>
    <Role>Volunteer</Role>
    <TypeDistance>Walking</TypeDistance>
    <Password>VqBV0IjAWuMVnMA+49Yfdw==</Password>
    <Address>Eli Cohen 1, Ramat Gan, Israel</Address>
    <Latitude>32.08333</Latitude>
    <Longitude>34.82732</Longitude>
    <MaxDistance>81.51279323234961</MaxDistance>
    <IsActive>true</IsActive>
  </Volunteer>
  <Volunteer>
    <Id>327770087</Id>
    <FullName>Ayala Ozeri</FullName>
    <Phone>0533328200</Phone>
    <Email>ayala.ozeri@gmail.com</Email>
    <Role>Manager</Role>
    <TypeDistance>Aerial</TypeDistance>
    <Password>cG7u4PJH+b6BY1IXLhJYJQ==</Password>
    <Address>Rothschild 10, Tel Aviv, Israel</Address>
    <Latitude>32.0625</Latitude>
    <Longitude>34.7721</Longitude>
    <MaxDistance>10</MaxDistance>
    <IsActive>true</IsActive>
  </Volunteer>
  <Volunteer>
    <Id>326615127</Id>
    <FullName>Yael Shneor</FullName>
    <Phone>0533859299</Phone>
    <Email>y7697086@gmail.com</Email>
    <Role>Manager</Role>
    <TypeDistance>Traveling</TypeDistance>
    <Password>4Aa0guBmhrmrgF+t+EJTUw==</Password>
    <Address>Derech Hevron 78, Jerusalem, Israel</Address>
    <Latitude>31.7525</Latitude>
    <Longitude>35.2121</Longitude>
    <MaxDistance>20</MaxDistance>
    <IsActive>true</IsActive>
  </Volunteer>
</ArrayOfVolunteer>