<?xml version="1.0" encoding="utf-8"?>
<ArrayOfVolunteer xmlns:xsi="http://www.w3.org/2001/XMLSchema-instance" xmlns:xsd="http://www.w3.org/2001/XMLSchema">
  <Volunteer>
    <Id>674550785</Id>
    <FullName>Dani Levy</FullName>
    <Phone>05067654703</Phone>
    <Email>danilevy@gmail.com</Email>
    <Role>Volunteer</Role>
    <TypeDistance>Aerial</TypeDistance>
    <Password>0FN7D9mhiwowyzYEY3FM9g==</Password>
    <Address>Rothschild 10, Tel Aviv, Israel</Address>
    <Latitude>32.06366</Latitude>
    <Longitude>34.77697</Longitude>
    <MaxDistance>40.74655602172416</MaxDistance>
    <IsActive>true</IsActive>
  </Volunteer>
  <Volunteer>
    <Id>484501226</Id>
    <FullName>Eli Amar</FullName>
    <Phone>05075947724</Phone>
    <Email>eliamar@gmail.com</Email>
    <Role>Volunteer</Role>
    <TypeDistance>Aerial</TypeDistance>
    <Password>AV8nj4YXHanZIWMoR8ISnA==</Password>
    <Address>Yigal Alon 120, Tel Aviv, Israel</Address>
    <Latitude>32.0618</Latitude>
    <Longitude>34.79152</Longitude>
    <MaxDistance>73.8691181379567</MaxDistance>
    <IsActive>true</IsActive>
  </Volunteer>
  <Volunteer>
    <Id>975363193</Id>
    <FullName>Yair Cohen</FullName>
    <Phone>05028930971</Phone>
    <Email>yaircohen@gmail.com</Email>
    <Role>Volunteer</Role>
    <TypeDistance>Aerial</TypeDistance>
    <Password>gYZ7wyG5B3enuqUke3VLwg==</Password>
    <Address>Ibn Gvirol 30, Tel Aviv, Israel</Address>
    <Latitude>32.08404</Latitude>
    <Longitude>34.78139</Longitude>
    <MaxDistance>79.91555887504656</MaxDistance>
    <IsActive>true</IsActive>
  </Volunteer>
  <Volunteer>
    <Id>967530684</Id>
    <FullName>Ariela Levin</FullName>
    <Phone>05936407214</Phone>
    <Email>arielalevin@gmail.com</Email>
    <Role>Volunteer</Role>
    <TypeDistance>Aerial</TypeDistance>
    <Password>xjR6tfUrep4Pb+wGwVFLFg==</Password>
    <Address>Derech Hevron 78, Jerusalem, Israel</Address>
    <Latitude>31.74851</Latitude>
    <Longitude>35.21289</Longitude>
    <MaxDistance xsi:nil="true" />
    <IsActive>true</IsActive>
  </Volunteer>
  <Volunteer>
    <Id>680710332</Id>
    <FullName>Dina Klein</FullName>
    <Phone>05324872133</Phone>
    <Email>dinaklein@gmail.com</Email>
    <Role>Volunteer</Role>
    <TypeDistance>Aerial</TypeDistance>
    <Password>87WqOg4o6uDCgAFDRK5yeQ==</Password>
    <Address>Herzl Blvd 103, Jerusalem, Israel</Address>
    <Latitude>31.76832</Latitude>
    <Longitude>35.18331</Longitude>
    <MaxDistance xsi:nil="true" />
    <IsActive>true</IsActive>
  </Volunteer>
  <Volunteer>
    <Id>142161512</Id>
    <FullName>Shira Israelof</FullName>
    <Phone>05514027291</Phone>
    <Email>shiraisraelof@gmail.com</Email>
    <Role>Volunteer</Role>
    <TypeDistance>Aerial</TypeDistance>
    <Password>5jPkipLTv2I8KQuQH/eViQ==</Password>
    <Address>Jaffa St 45, Jerusalem, Israel</Address>
    <Latitude>31.78571</Latitude>
    <Longitude>35.22323</Longitude>
    <MaxDistance xsi:nil="true" />
    <IsActive>true</IsActive>
  </Volunteer>
  <Volunteer>
    <Id>627262876</Id>
    <FullName>David Ben-Gurion</FullName>
    <Phone>05331924529</Phone>
    <Email>davidben-gurion@gmail.com</Email>
    <Role>Volunteer</Role>
    <TypeDistance>Aerial</TypeDistance>
    <Password>zGqWWS7oxBlpiYYISqoQCw==</Password>
    <Address>Herzl 9, Haifa, Israel</Address>
    <Latitude>32.79916</Latitude>
    <Longitude>34.99115</Longitude>
    <MaxDistance xsi:nil="true" />
    <IsActive>true</IsActive>
  </Volunteer>
  <Volunteer>
    <Id>603051947</Id>
    <FullName>Golda Meir</FullName>
    <Phone>05478868951</Phone>
    <Email>goldameir@gmail.com</Email>
    <Role>Volunteer</Role>
    <TypeDistance>Aerial</TypeDistance>
    <Password>Ij4HN1wsnslqPlqBZCeI7Q==</Password>
    <Address>Moriah Blvd 70, Haifa, Israel</Address>
    <Latitude>32.79406</Latitude>
    <Longitude>34.98264</Longitude>
    <MaxDistance>19.741517798248797</MaxDistance>
    <IsActive>true</IsActive>
  </Volunteer>
  <Volunteer>
    <Id>781021860</Id>
    <FullName>Yitzhak Rabin</FullName>
    <Phone>05669099274</Phone>
    <Email>yitzhakrabin@gmail.com</Email>
    <Role>Volunteer</Role>
    <TypeDistance>Aerial</TypeDistance>
    <Password>YbVjPUllWJjZG4nsWcMpCA==</Password>
    <Address>The Prophets 11, Haifa, Israel</Address>
    <Latitude>32.81912</Latitude>
    <Longitude>34.98865</Longitude>
    <MaxDistance>64.5942924425227</MaxDistance>
    <IsActive>true</IsActive>
  </Volunteer>
  <Volunteer>
    <Id>747695906</Id>
    <FullName>Chaim Weizmann</FullName>
    <Phone>05989705159</Phone>
    <Email>chaimweizmann@gmail.com</Email>
    <Role>Volunteer</Role>
    <TypeDistance>Aerial</TypeDistance>
    <Password>Zt4MpNS0mdICbI3jetPoKA==</Password>
    <Address>Rav Shauli 5, Be'er Sheva, Israel</Address>
    <Latitude>31.25297</Latitude>
    <Longitude>34.79223</Longitude>
    <MaxDistance>5.325824125575541</MaxDistance>
    <IsActive>true</IsActive>
  </Volunteer>
  <Volunteer>
    <Id>975856709</Id>
    <FullName>Menachem Begin</FullName>
    <Phone>05544565942</Phone>
    <Email>menachembegin@gmail.com</Email>
    <Role>Volunteer</Role>
    <TypeDistance>Aerial</TypeDistance>
    <Password>tUGhh2iHgkj9wAc51+J4Hw==</Password>
    <Address>Reger Blvd 55, Be'er Sheva, Israel</Address>
    <Latitude>31.24642</Latitude>
    <Longitude>34.77952</Longitude>
    <MaxDistance xsi:nil="true" />
    <IsActive>true</IsActive>
  </Volunteer>
  <Volunteer>
    <Id>824564579</Id>
    <FullName>Ariel Sharon</FullName>
    <Phone>05515583353</Phone>
    <Email>arielsharon@gmail.com</Email>
    <Role>Volunteer</Role>
    <TypeDistance>Aerial</TypeDistance>
    <Password>h2j1ODczuTSPHBos9fftfQ==</Password>
    <Address>Johanna Jabotinsky 15, Be'er Sheva, Israel</Address>
    <Latitude>31.2536</Latitude>
    <Longitude>34.78251</Longitude>
    <MaxDistance>38.97727440811673</MaxDistance>
    <IsActive>true</IsActive>
  </Volunteer>
  <Volunteer>
    <Id>721016087</Id>
    <FullName>Moshe Dayan</FullName>
    <Phone>05158980983</Phone>
    <Email>moshedayan@gmail.com</Email>
    <Role>Volunteer</Role>
    <TypeDistance>Aerial</TypeDistance>
    <Password>5+kqBMg/0LPXDj7jwJw1hA==</Password>
    <Address>Begin Way 234, Petah Tikva, Israel</Address>
    <Latitude>32.09077</Latitude>
    <Longitude>34.88718</Longitude>
    <MaxDistance xsi:nil="true" />
    <IsActive>true</IsActive>
  </Volunteer>
  <Volunteer>
    <Id>301150447</Id>
    <FullName>Shimon Peres</FullName>
    <Phone>05559921705</Phone>
    <Email>shimonperes@gmail.com</Email>
    <Role>Volunteer</Role>
    <TypeDistance>Aerial</TypeDistance>
    <Password>xXdnBkLBhxt5lk6M7eofPQ==</Password>
    <Address>Weizmann 22, Petah Tikva, Israel</Address>
    <Latitude>32.08862</Latitude>
    <Longitude>34.88532</Longitude>
    <MaxDistance>98.24885427965725</MaxDistance>
    <IsActive>true</IsActive>
  </Volunteer>
  <Volunteer>
    <Id>128044765</Id>
    <FullName>Yigal Alon</FullName>
    <Phone>05171787631</Phone>
    <Email>yigalalon@gmail.com</Email>
    <Role>Volunteer</Role>
    <TypeDistance>Aerial</TypeDistance>
    <Password>nUxCjO2jgoUhT14Sqj18vw==</Password>
    <Address>Eli Cohen 1, Ramat Gan, Israel</Address>
    <Latitude>32.08333</Latitude>
    <Longitude>34.82732</Longitude>
    <MaxDistance xsi:nil="true" />
    <IsActive>true</IsActive>
  </Volunteer>
  <Volunteer>
    <Id>326615127</Id>
    <FullName>elishevaa</FullName>
    <Phone>0533859299</Phone>
    <Email>y7697086@gmail.com</Email>
    <Role>Volunteer</Role>
    <TypeDistance>Aerial</TypeDistance>
    <Password>yaelS2208!</Password>
    <Address>Derech Hevron 78, Jerusalem, Israel</Address>
    <Latitude>31.7564779</Latitude>
    <Longitude>35.2221262</Longitude>
    <MaxDistance>20</MaxDistance>
    <IsActive>true</IsActive>
  </Volunteer>
  <Volunteer>
    <Id>327770087</Id>
    <FullName>Ayala Ozerigbiyhnju</FullName>
    <Phone>0533328200</Phone>
    <Email>ayala.ozeri@gmail.com</Email>
    <Role>Manager</Role>
    <TypeDistance>Aerial</TypeDistance>
    <Password>ayalSa19!</Password>
    <Address>Rothschild 10, Tel Aviv, Israel</Address>
    <Latitude>32.06277670000001</Latitude>
    <Longitude>34.77010850000001</Longitude>
    <MaxDistance>10</MaxDistance>
    <IsActive>true</IsActive>
  </Volunteer>
</ArrayOfVolunteer>